[
    {
        "id": 1723469,
        "name": "Buenavista",
        "state": "",
        "country": "PH",
        "coord": {
            "lon": 123.601303,
            "lat": 10.1776
        }
    },
    {
        "id": 1723470,
        "name": "Buenavista",
        "state": "",
        "country": "PH",
        "coord": {
            "lon": 123.243896,
            "lat": 10.1379
        }
    },
    {
        "id": 1723477,
        "name": "Buenavista",
        "state": "",
        "country": "PH",
        "coord": {
            "lon": 124.222504,
            "lat": 9.84056
        }
    },
    {
        "id": 1723480,
        "name": "Buenavista",
        "state": "",
        "country": "PH",
        "coord": {
            "lon": 126.160828,
            "lat": 9.115
        }
    },
    {
        "id": 1723481,
        "name": "Buenavista",
        "state": "",
        "country": "PH",
        "coord": {
            "lon": 125.40889,
            "lat": 8.97694
        }
    },
    {
        "id": 1723484,
        "name": "Buenavista",
        "state": "",
        "country": "PH",
        "coord": {
            "lon": 122.25528,
            "lat": 7.23611
        }
    },
    {
        "id": 1723498,
        "name": "Bued",
        "state": "",
        "country": "PH",
        "coord": {
            "lon": 120.0,
            "lat": 16.16667
        }
    },
    {
        "id": 1723501,
        "name": "Bued",
        "state": "",
        "country": "PH",
        "coord": {
            "lon": 120.650002,
            "lat": 15.83333
        }
    },
    {
        "id": 1723510,
        "name": "Budta",
        "state": "",
        "country": "PH",
        "coord": {
            "lon": 124.43972,
            "lat": 7.20417
        }
    },
    {
        "id": 1723538,
        "name": "Bu-Datu",
        "state": "",
        "country": "PH",
        "coord": {
            "lon": 120.997704,
            "lat": 6.0234
        }
    },
    {
        "id": 1723552,
        "name": "Bucloc",
        "state": "",
        "country": "PH",
        "coord": {
            "lon": 120.858849,
            "lat": 17.44113
        }
    },
    {
        "id": 1723556,
        "name": "Buclad",
        "state": "",
        "country": "PH",
        "coord": {
            "lon": 125.750557,
            "lat": 7.52778
        }
    },
    {
        "id": 1723562,
        "name": "Bukay Pait",
        "state": "",
        "country": "PH",
        "coord": {
            "lon": 124.767502,
            "lat": 6.56417
        }
    },
    {
        "id": 1723569,
        "name": "Bucay",
        "state": "",
        "country": "PH",
        "coord": {
            "lon": 120.718803,
            "lat": 17.5404
        }
    },
    {
        "id": 1723635,
        "name": "Babug",
        "state": "",
        "country": "PH",
        "coord": {
            "lon": 121.04171,
            "lat": 12.37325
        }
    },
    {
        "id": 1723679,
        "name": "Buayan",
        "state": "",
        "country": "PH",
        "coord": {
            "lon": 125.234718,
            "lat": 6.11639
        }
    },
    {
        "id": 1723701,
        "name": "Buanoy",
        "state": "",
        "country": "PH",
        "coord": {
            "lon": 123.699898,
            "lat": 10.46746
        }
    },
    {
        "id": 1723707,
        "name": "Buang",
        "state": "",
        "country": "PH",
        "coord": {
            "lon": 123.641937,
            "lat": 13.31222
        }
    },
    {
        "id": 1723719,
        "name": "Bualan",
        "state": "",
        "country": "PH",
        "coord": {
            "lon": 124.26667,
            "lat": 7.75
        }
    },
    {
        "id": 1723724,
        "name": "Bual",
        "state": "",
        "country": "PH",
        "coord": {
            "lon": 124.505829,
            "lat": 7.1825
        }
    },
    {
        "id": 1723726,
        "name": "Bual",
        "state": "",
        "country": "PH",
        "coord": {
            "lon": 124.910828,
            "lat": 6.79583
        }
    },
    {
        "id": 1723733,
        "name": "Buagsong",
        "state": "",
        "country": "PH",
        "coord": {
            "lon": 123.949997,
            "lat": 10.31667
        }
    },
    {
        "id": 1723739,
        "name": "Buadiposo-Buntong",
        "state": "",
        "country": "PH",
        "coord": {
            "lon": 124.383331,
            "lat": 7.96667
        }
    },
    {
        "id": 1723818,
        "name": "Boton",
        "state": "",
        "country": "PH",
        "coord": {
            "lon": 124.047897,
            "lat": 12.9287
        }
    },
    {
        "id": 1723822,
        "name": "Botolan",
        "state": "",
        "country": "PH",
        "coord": {
            "lon": 120.024498,
            "lat": 15.2896
        }
    },
    {
        "id": 1723842,
        "name": "Botigues",
        "state": "",
        "country": "PH",
        "coord": {
            "lon": 123.667503,
            "lat": 11.0995
        }
    },
    {
        "id": 1723854,
        "name": "Botao",
        "state": "",
        "country": "PH",
        "coord": {
            "lon": 120.416672,
            "lat": 15.91667
        }
    },
    {
        "id": 1723862,
        "name": "Boston",
        "state": "",
        "country": "PH",
        "coord": {
            "lon": 126.364166,
            "lat": 7.87111
        }
    },
    {
        "id": 1723877,
        "name": "Bosdak",
        "state": "",
        "country": "PH",
        "coord": {
            "lon": 122.5,
            "lat": 13.4
        }
    },
    {
        "id": 1723893,
        "name": "Borongan",
        "state": "",
        "country": "PH",
        "coord": {
            "lon": 125.431938,
            "lat": 11.60806
        }
    },
    {
        "id": 1723894,
        "name": "City of Borongan",
        "state": "",
        "country": "PH",
        "coord": {
            "lon": 125.433327,
            "lat": 11.63333
        }
    },
    {
        "id": 1723907,
        "name": "Yapak",
        "state": "",
        "country": "PH",
        "coord": {
            "lon": 121.933327,
            "lat": 11.95
        }
    },
    {
        "id": 1723926,
        "name": "Borbon",
        "state": "",
        "country": "PH",
        "coord": {
            "lon": 124.029701,
            "lat": 10.838
        }
    },
    {
        "id": 1723927,
        "name": "Borbon",
        "state": "",
        "country": "PH",
        "coord": {
            "lon": 125.893059,
            "lat": 8.48417
        }
    },
    {
        "id": 1723951,
        "name": "Booy",
        "state": "",
        "country": "PH",
        "coord": {
            "lon": 123.849998,
            "lat": 9.66667
        }
    },
    {
        "id": 1723954,
        "name": "Boot",
        "state": "",
        "country": "PH",
        "coord": {
            "lon": 121.077217,
            "lat": 14.04556
        }
    },
    {
        "id": 1723963,
        "name": "Bood",
        "state": "",
        "country": "PH",
        "coord": {
            "lon": 123.827827,
            "lat": 9.74508
        }
    },
    {
        "id": 1723983,
        "name": "Bontoc",
        "state": "",
        "country": "PH",
        "coord": {
            "lon": 120.977997,
            "lat": 17.089899
        }
    },
    {
        "id": 1723985,
        "name": "Bontoc",
        "state": "",
        "country": "PH",
        "coord": {
            "lon": 124.969704,
            "lat": 10.3556
        }
    },
    {
        "id": 1724034,
        "name": "Bongued",
        "state": "",
        "country": "PH",
        "coord": {
            "lon": 124.400002,
            "lat": 7.11667
        }
    },
    {
        "id": 1724038,
        "name": "Bungsuan",
        "state": "",
        "country": "PH",
        "coord": {
            "lon": 122.697601,
            "lat": 11.2404
        }
    },
    {
        "id": 1724088,
        "name": "Bongao",
        "state": "",
        "country": "PH",
        "coord": {
            "lon": 119.773064,
            "lat": 5.02917
        }
    },
    {
        "id": 1724089,
        "name": "Bongao",
        "state": "",
        "country": "PH",
        "coord": {
            "lon": 119.783333,
            "lat": 5.08333
        }
    },
    {
        "id": 1724094,
        "name": "Bo単galon",
        "state": "",
        "country": "PH",
        "coord": {
            "lon": 120.159042,
            "lat": 16.000219
        }
    },
    {
        "id": 1724103,
        "name": "Bungabon",
        "state": "",
        "country": "PH",
        "coord": {
            "lon": 125.8731,
            "lat": 7.2221
        }
    },
    {
        "id": 1724106,
        "name": "Bongabon",
        "state": "",
        "country": "PH",
        "coord": {
            "lon": 121.144798,
            "lat": 15.6321
        }
    },
    {
        "id": 1724107,
        "name": "Bongabon",
        "state": "",
        "country": "PH",
        "coord": {
            "lon": 121.23333,
            "lat": 15.66667
        }
    },
    {
        "id": 1724111,
        "name": "Bonga",
        "state": "",
        "country": "PH",
        "coord": {
            "lon": 123.758698,
            "lat": 13.2799
        }
    },
    {
        "id": 1724112,
        "name": "Bonga",
        "state": "",
        "country": "PH",
        "coord": {
            "lon": 123.550003,
            "lat": 13.21667
        }
    },
    {
        "id": 1724128,
        "name": "Bone South",
        "state": "",
        "country": "PH",
        "coord": {
            "lon": 120.995796,
            "lat": 16.2446
        }
    },
    {
        "id": 1724165,
        "name": "Bonbon",
        "state": "",
        "country": "PH",
        "coord": {
            "lon": 123.557297,
            "lat": 10.2245
        }
    },
    {
        "id": 1724177,
        "name": "Bonawon",
        "state": "",
        "country": "PH",
        "coord": {
            "lon": 122.919296,
            "lat": 9.134
        }
    },
    {
        "id": 1724203,
        "name": "Bombon",
        "state": "",
        "country": "PH",
        "coord": {
            "lon": 123.207703,
            "lat": 13.6887
        }
    },
    {
        "id": 1724239,
        "name": "Bolong",
        "state": "",
        "country": "PH",
        "coord": {
            "lon": 122.51667,
            "lat": 10.81667
        }
    },
    {
        "id": 1724240,
        "name": "Bolong",
        "state": "",
        "country": "PH",
        "coord": {
            "lon": 122.239166,
            "lat": 7.09833
        }
    },
    {
        "id": 1724272,
        "name": "Bolo Bolo",
        "state": "",
        "country": "PH",
        "coord": {
            "lon": 124.529999,
            "lat": 8.55833
        }
    },
    {
        "id": 1724278,
        "name": "Bolo",
        "state": "",
        "country": "PH",
        "coord": {
            "lon": 120.164703,
            "lat": 15.9948
        }
    },
    {
        "id": 1724280,
        "name": "Bolo",
        "state": "",
        "country": "PH",
        "coord": {
            "lon": 120.981728,
            "lat": 13.78991
        }
    },
    {
        "id": 1724281,
        "name": "Bolo",
        "state": "",
        "country": "PH",
        "coord": {
            "lon": 122.965797,
            "lat": 13.753
        }
    },
    {
        "id": 1724289,
        "name": "Bulo",
        "state": "",
        "country": "PH",
        "coord": {
            "lon": 123.572502,
            "lat": 12.41056
        }
    },
    {
        "id": 1724291,
        "name": "Bolo",
        "state": "",
        "country": "PH",
        "coord": {
            "lon": 122.757217,
            "lat": 11.54028
        }
    },
    {
        "id": 1724297,
        "name": "Boljoon",
        "state": "",
        "country": "PH",
        "coord": {
            "lon": 123.4785,
            "lat": 9.6281
        }
    },
    {
        "id": 1724301,
        "name": "Bolitoc",
        "state": "",
        "country": "PH",
        "coord": {
            "lon": 119.8769,
            "lat": 15.7395
        }
    },
    {
        "id": 1724303,
        "name": "Bolisong",
        "state": "",
        "country": "PH",
        "coord": {
            "lon": 123.151672,
            "lat": 9.69111
        }
    },
    {
        "id": 1724308,
        "name": "Bolingit",
        "state": "",
        "country": "PH",
        "coord": {
            "lon": 120.350281,
            "lat": 15.95278
        }
    },
    {
        "id": 1724309,
        "name": "Boliney",
        "state": "",
        "country": "PH",
        "coord": {
            "lon": 120.781151,
            "lat": 17.40773
        }
    },
    {
        "id": 1724317,
        "name": "Bolinao",
        "state": "",
        "country": "PH",
        "coord": {
            "lon": 119.892303,
            "lat": 16.3883
        }
    },
    {
        "id": 1724323,
        "name": "Bolilao",
        "state": "",
        "country": "PH",
        "coord": {
            "lon": 122.73333,
            "lat": 10.88333
        }
    },
    {
        "id": 1724327,
        "name": "Bolila",
        "state": "",
        "country": "PH",
        "coord": {
            "lon": 125.571388,
            "lat": 6.37167
        }
    },
    {
        "id": 1724350,
        "name": "Bolboc",
        "state": "",
        "country": "PH",
        "coord": {
            "lon": 120.755951,
            "lat": 14.02074
        }
    },
    {
        "id": 1724358,
        "name": "Bulawin",
        "state": "",
        "country": "PH",
        "coord": {
            "lon": 119.956398,
            "lat": 15.4173
        }
    },
    {
        "id": 1724359,
        "name": "Bolaoit",
        "state": "",
        "country": "PH",
        "coord": {
            "lon": 120.431999,
            "lat": 15.934
        }
    },
    {
        "id": 1724378,
        "name": "Bokod",
        "state": "",
        "country": "PH",
        "coord": {
            "lon": 120.831299,
            "lat": 16.4895
        }
    },
    {
        "id": 1724382,
        "name": "Bokbok",
        "state": "",
        "country": "PH",
        "coord": {
            "lon": 124.716667,
            "lat": 9.25
        }
    },
    {
        "id": 1724395,
        "name": "Bohol",
        "state": "",
        "country": "PH",
        "coord": {
            "lon": 124.166672,
            "lat": 9.83333
        }
    },
    {
        "id": 1724416,
        "name": "Bogtong",
        "state": "",
        "country": "PH",
        "coord": {
            "lon": 120.328499,
            "lat": 15.7536
        }
    },
    {
        "id": 1724435,
        "name": "Bogo",
        "state": "",
        "country": "PH",
        "coord": {
            "lon": 124.005501,
            "lat": 11.0517
        }
    },
    {
        "id": 1724437,
        "name": "Bogo",
        "state": "",
        "country": "PH",
        "coord": {
            "lon": 123.564171,
            "lat": 9.85686
        }
    },
    {
        "id": 1724439,
        "name": "City of Bogo",
        "state": "",
        "country": "PH",
        "coord": {
            "lon": 124.0,
            "lat": 11.03333
        }
    },
    {
        "id": 1724461,
        "name": "Bodega",
        "state": "",
        "country": "PH",
        "coord": {
            "lon": 120.478699,
            "lat": 14.924
        }
    },
    {
        "id": 1724472,
        "name": "Bocos",
        "state": "",
        "country": "PH",
        "coord": {
            "lon": 121.057343,
            "lat": 16.92646
        }
    },
    {
        "id": 1724489,
        "name": "Bocaue",
        "state": "",
        "country": "PH",
        "coord": {
            "lon": 120.926109,
            "lat": 14.79833
        }
    },
    {
        "id": 1724490,
        "name": "Bocaue",
        "state": "",
        "country": "PH",
        "coord": {
            "lon": 120.926941,
            "lat": 14.79972
        }
    },
    {
        "id": 1724500,
        "name": "Bocana",
        "state": "",
        "country": "PH",
        "coord": {
            "lon": 122.721703,
            "lat": 10.0116
        }
    },
    {
        "id": 1724519,
        "name": "Bobon Second",
        "state": "",
        "country": "PH",
        "coord": {
            "lon": 120.385399,
            "lat": 15.6691
        }
    },
    {
        "id": 1724532,
        "name": "Bobonan",
        "state": "",
        "country": "PH",
        "coord": {
            "lon": 120.5271,
            "lat": 16.1348
        }
    },
    {
        "id": 1724535,
        "name": "Bobon",
        "state": "",
        "country": "PH",
        "coord": {
            "lon": 124.563599,
            "lat": 12.5246
        }
    },
    {
        "id": 1724544,
        "name": "Bobon",
        "state": "",
        "country": "PH",
        "coord": {
            "lon": 126.328377,
            "lat": 6.86782
        }
    },
    {
        "id": 1724561,
        "name": "Buayan",
        "state": "",
        "country": "PH",
        "coord": {
            "lon": 124.529442,
            "lat": 7.26111
        }
    },
    {
        "id": 1724567,
        "name": "Buan",
        "state": "",
        "country": "PH",
        "coord": {
            "lon": 120.042603,
            "lat": 5.1608
        }
    },
    {
        "id": 1724576,
        "name": "Boac",
        "state": "",
        "country": "PH",
        "coord": {
            "lon": 121.839996,
            "lat": 13.4463
        }
    },
    {
        "id": 1724594,
        "name": "Blinsung",
        "state": "",
        "country": "PH",
        "coord": {
            "lon": 124.180557,
            "lat": 7.01806
        }
    },
    {
        "id": 1724597,
        "name": "Blingkong",
        "state": "",
        "country": "PH",
        "coord": {
            "lon": 124.87722,
            "lat": 6.57222
        }
    },
    {
        "id": 1724632,
        "name": "Biwang",
        "state": "",
        "country": "PH",
        "coord": {
            "lon": 124.555283,
            "lat": 6.59722
        }
    },
    {
        "id": 1724641,
        "name": "Bitu単gol",
        "state": "",
        "country": "PH",
        "coord": {
            "lon": 121.033333,
            "lat": 14.88333
        }
    },
    {
        "id": 1724656,
        "name": "Biton",
        "state": "",
        "country": "PH",
        "coord": {
            "lon": 123.994003,
            "lat": 11.2332
        }
    },
    {
        "id": 1724660,
        "name": "Bitoon",
        "state": "",
        "country": "PH",
        "coord": {
            "lon": 123.458702,
            "lat": 10.0804
        }
    },
    {
        "id": 1724691,
        "name": "Bitin",
        "state": "",
        "country": "PH",
        "coord": {
            "lon": 121.212784,
            "lat": 14.09389
        }
    },
    {
        "id": 1724728,
        "name": "Bitaogan",
        "state": "",
        "country": "PH",
        "coord": {
            "lon": 126.077377,
            "lat": 6.76842
        }
    },
    {
        "id": 1724734,
        "name": "Bitanjuan",
        "state": "",
        "country": "PH",
        "coord": {
            "lon": 124.766296,
            "lat": 10.5955
        }
    },
    {
        "id": 1724735,
        "name": "Bitangan",
        "state": "",
        "country": "PH",
        "coord": {
            "lon": 120.878326,
            "lat": 14.25389
        }
    },
    {
        "id": 1724743,
        "name": "Bitag Grande",
        "state": "",
        "country": "PH",
        "coord": {
            "lon": 121.850647,
            "lat": 17.900789
        }
    },
    {
        "id": 1724747,
        "name": "Bitadtun",
        "state": "",
        "country": "PH",
        "coord": {
            "lon": 122.085114,
            "lat": 11.4969
        }
    },
    {
        "id": 1724766,
        "name": "Bislig",
        "state": "",
        "country": "PH",
        "coord": {
            "lon": 125.033607,
            "lat": 11.0725
        }
    },
    {
        "id": 1724767,
        "name": "Bislig",
        "state": "",
        "country": "PH",
        "coord": {
            "lon": 126.316391,
            "lat": 8.21528
        }
    },
    {
        "id": 1724769,
        "name": "City of Bislig",
        "state": "",
        "country": "PH",
        "coord": {
            "lon": 126.283333,
            "lat": 8.21667
        }
    },
    {
        "id": 1724803,
        "name": "Biri",
        "state": "",
        "country": "PH",
        "coord": {
            "lon": 124.363609,
            "lat": 12.68333
        }
    },
    {
        "id": 1724833,
        "name": "Binantocan",
        "state": "",
        "country": "PH",
        "coord": {
            "lon": 122.860199,
            "lat": 11.4073
        }
    },
    {
        "id": 1724850,
        "name": "Binulasan",
        "state": "",
        "country": "PH",
        "coord": {
            "lon": 121.698608,
            "lat": 14.73167
        }
    },
    {
        "id": 1724860,
        "name": "Binucayan",
        "state": "",
        "country": "PH",
        "coord": {
            "lon": 125.716667,
            "lat": 8.25
        }
    },
    {
        "id": 1724862,
        "name": "Binubusan",
        "state": "",
        "country": "PH",
        "coord": {
            "lon": 120.637711,
            "lat": 13.96283
        }
    },
    {
        "id": 1724872,
        "name": "Binuangan",
        "state": "",
        "country": "PH",
        "coord": {
            "lon": 124.78833,
            "lat": 8.91528
        }
    },
    {
        "id": 1724896,
        "name": "Bintawan",
        "state": "",
        "country": "PH",
        "coord": {
            "lon": 121.187637,
            "lat": 16.57588
        }
    },
    {
        "id": 1724902,
        "name": "Bintacay",
        "state": "",
        "country": "PH",
        "coord": {
            "lon": 121.876801,
            "lat": 13.4986
        }
    },
    {
        "id": 1724933,
        "name": "Binonga",
        "state": "",
        "country": "PH",
        "coord": {
            "lon": 122.98278,
            "lat": 10.77306
        }
    },
    {
        "id": 1724937,
        "name": "Binon-an",
        "state": "",
        "country": "PH",
        "coord": {
            "lon": 123.142601,
            "lat": 11.3947
        }
    },
    {
        "id": 1724945,
        "name": "Binodegahan",
        "state": "",
        "country": "PH",
        "coord": {
            "lon": 123.457901,
            "lat": 13.0614
        }
    },
    {
        "id": 1724956,
        "name": "Binmaley",
        "state": "",
        "country": "PH",
        "coord": {
            "lon": 120.271202,
            "lat": 16.030701
        }
    },
    {
        "id": 1724959,
        "name": "Binlod",
        "state": "",
        "country": "PH",
        "coord": {
            "lon": 123.60743,
            "lat": 9.91845
        }
    },
    {
        "id": 1724964,
        "name": "Binitinan",
        "state": "",
        "country": "PH",
        "coord": {
            "lon": 124.775558,
            "lat": 8.71
        }
    },
    {
        "id": 1724968,
        "name": "Binitayan",
        "state": "",
        "country": "PH",
        "coord": {
            "lon": 123.757896,
            "lat": 13.2945
        }
    },
    {
        "id": 1724983,
        "name": "Binidayan",
        "state": "",
        "country": "PH",
        "coord": {
            "lon": 124.168457,
            "lat": 7.80668
        }
    },
    {
        "id": 1725001,
        "name": "Binguang",
        "state": "",
        "country": "PH",
        "coord": {
            "lon": 121.782784,
            "lat": 17.461941
        }
    },
    {
        "id": 1725011,
        "name": "Bingawan",
        "state": "",
        "country": "PH",
        "coord": {
            "lon": 122.5672,
            "lat": 11.233
        }
    },
    {
        "id": 1725029,
        "name": "Payabon",
        "state": "",
        "country": "PH",
        "coord": {
            "lon": 123.141197,
            "lat": 9.759
        }
    },
    {
        "id": 1725032,
        "name": "Binday",
        "state": "",
        "country": "PH",
        "coord": {
            "lon": 120.452499,
            "lat": 16.1271
        }
    },
    {
        "id": 1725033,
        "name": "Binco単gan",
        "state": "",
        "country": "PH",
        "coord": {
            "lon": 125.75,
            "lat": 7.36667
        }
    },
    {
        "id": 1725048,
        "name": "Binay",
        "state": "",
        "country": "PH",
        "coord": {
            "lon": 122.597504,
            "lat": 13.50278
        }
    },
    {
        "id": 1725076,
        "name": "Binanwanaan",
        "state": "",
        "country": "PH",
        "coord": {
            "lon": 123.300003,
            "lat": 13.7
        }
    },
    {
        "id": 1725094,
        "name": "Binangonan",
        "state": "",
        "country": "PH",
        "coord": {
            "lon": 121.192902,
            "lat": 14.4646
        }
    },
    {
        "id": 1725095,
        "name": "Binangonan",
        "state": "",
        "country": "PH",
        "coord": {
            "lon": 121.183327,
            "lat": 14.46667
        }
    },
    {
        "id": 1725115,
        "name": "Bi単an",
        "state": "",
        "country": "PH",
        "coord": {
            "lon": 121.080711,
            "lat": 14.34267
        }
    },
    {
        "id": 1725116,
        "name": "Binan",
        "state": "",
        "country": "PH",
        "coord": {
            "lon": 121.052643,
            "lat": 14.26373
        }
    },
    {
        "id": 1725127,
        "name": "Binalonan",
        "state": "",
        "country": "PH",
        "coord": {
            "lon": 120.592598,
            "lat": 16.050301
        }
    },
    {
        "id": 1725157,
        "name": "Binalbagan",
        "state": "",
        "country": "PH",
        "coord": {
            "lon": 122.858101,
            "lat": 10.1948
        }
    },
    {
        "id": 1725166,
        "name": "Binalan",
        "state": "",
        "country": "PH",
        "coord": {
            "lon": 121.545097,
            "lat": 18.327499
        }
    },
    {
        "id": 1725173,
        "name": "Binahaan",
        "state": "",
        "country": "PH",
        "coord": {
            "lon": 121.758057,
            "lat": 13.99056
        }
    },
    {
        "id": 1725210,
        "name": "Binabalian",
        "state": "",
        "country": "PH",
        "coord": {
            "lon": 119.927902,
            "lat": 16.4202
        }
    },
    {
        "id": 1725217,
        "name": "Binabaan",
        "state": "",
        "country": "PH",
        "coord": {
            "lon": 122.522102,
            "lat": 11.0191
        }
    },
    {
        "id": 1725232,
        "name": "Bilwang",
        "state": "",
        "country": "PH",
        "coord": {
            "lon": 124.466698,
            "lat": 10.8834
        }
    },
    {
        "id": 1725245,
        "name": "Bilog-Bilog",
        "state": "",
        "country": "PH",
        "coord": {
            "lon": 121.088608,
            "lat": 14.11361
        }
    },
    {
        "id": 1725250,
        "name": "Bil-Loca",
        "state": "",
        "country": "PH",
        "coord": {
            "lon": 120.568703,
            "lat": 18.0875
        }
    },
    {
        "id": 1725258,
        "name": "Biliran",
        "state": "",
        "country": "PH",
        "coord": {
            "lon": 124.475281,
            "lat": 11.46667
        }
    },
    {
        "id": 1725292,
        "name": "Bilaran",
        "state": "",
        "country": "PH",
        "coord": {
            "lon": 120.710281,
            "lat": 14.03528
        }
    },
    {
        "id": 1725294,
        "name": "Bilar",
        "state": "",
        "country": "PH",
        "coord": {
            "lon": 124.10717,
            "lat": 9.70825
        }
    },
    {
        "id": 1725297,
        "name": "Bilao",
        "state": "",
        "country": "PH",
        "coord": {
            "lon": 122.559898,
            "lat": 11.488
        }
    },
    {
        "id": 1725308,
        "name": "Bilad",
        "state": "",
        "country": "PH",
        "coord": {
            "lon": 120.4356,
            "lat": 15.7334
        }
    },
    {
        "id": 1725319,
        "name": "Biking",
        "state": "",
        "country": "PH",
        "coord": {
            "lon": 123.843033,
            "lat": 9.59382
        }
    },
    {
        "id": 1725359,
        "name": "Bignay Uno",
        "state": "",
        "country": "PH",
        "coord": {
            "lon": 121.489441,
            "lat": 13.86278
        }
    },
    {
        "id": 1725394,
        "name": "Bigaan",
        "state": "",
        "country": "PH",
        "coord": {
            "lon": 126.281113,
            "lat": 8.31722
        }
    },
    {
        "id": 1725397,
        "name": "Bigaa",
        "state": "",
        "country": "PH",
        "coord": {
            "lon": 123.757782,
            "lat": 13.19778
        }
    },
    {
        "id": 1725404,
        "name": "Biga",
        "state": "",
        "country": "PH",
        "coord": {
            "lon": 120.976669,
            "lat": 14.25083
        }
    },
    {
        "id": 1725409,
        "name": "Biga",
        "state": "",
        "country": "PH",
        "coord": {
            "lon": 121.161003,
            "lat": 13.3106
        }
    },
    {
        "id": 1725411,
        "name": "Biga",
        "state": "",
        "country": "PH",
        "coord": {
            "lon": 124.25972,
            "lat": 8.35778
        }
    },
    {
        "id": 1725412,
        "name": "Bien Unido",
        "state": "",
        "country": "PH",
        "coord": {
            "lon": 124.377609,
            "lat": 10.13729
        }
    },
    {
        "id": 1725428,
        "name": "Bicos",
        "state": "",
        "country": "PH",
        "coord": {
            "lon": 121.041397,
            "lat": 15.6602
        }
    },
    {
        "id": 1725435,
        "name": "Bibiclat",
        "state": "",
        "country": "PH",
        "coord": {
            "lon": 120.865898,
            "lat": 15.524
        }
    },
    {
        "id": 1725444,
        "name": "Bical Norte",
        "state": "",
        "country": "PH",
        "coord": {
            "lon": 120.434601,
            "lat": 15.8143
        }
    },
    {
        "id": 1725466,
        "name": "Biasong",
        "state": "",
        "country": "PH",
        "coord": {
            "lon": 123.736,
            "lat": 10.5229
        }
    },
    {
        "id": 1725484,
        "name": "Biao",
        "state": "",
        "country": "PH",
        "coord": {
            "lon": 122.977203,
            "lat": 10.1088
        }
    },
    {
        "id": 1725486,
        "name": "Biao",
        "state": "",
        "country": "PH",
        "coord": {
            "lon": 125.521111,
            "lat": 7.16333
        }
    },
    {
        "id": 1725492,
        "name": "Bialong",
        "state": "",
        "country": "PH",
        "coord": {
            "lon": 124.888893,
            "lat": 6.98056
        }
    },
    {
        "id": 1725506,
        "name": "Biabas",
        "state": "",
        "country": "PH",
        "coord": {
            "lon": 124.466667,
            "lat": 9.8
        }
    },
    {
        "id": 1725513,
        "name": "Betwagan",
        "state": "",
        "country": "PH",
        "coord": {
            "lon": 120.966667,
            "lat": 17.08333
        }
    },
    {
        "id": 1725538,
        "name": "Besao",
        "state": "",
        "country": "PH",
        "coord": {
            "lon": 120.857903,
            "lat": 17.094999
        }
    },
    {
        "id": 1725572,
        "name": "Benito Soliven",
        "state": "",
        "country": "PH",
        "coord": {
            "lon": 121.959938,
            "lat": 16.98155
        }
    },
    {
        "id": 1725582,
        "name": "Province of Benguet",
        "state": "",
        "country": "PH",
        "coord": {
            "lon": 120.666672,
            "lat": 16.5
        }
    },
    {
        "id": 1725609,
        "name": "Belison",
        "state": "",
        "country": "PH",
        "coord": {
            "lon": 121.960503,
            "lat": 10.8384
        }
    },
    {
        "id": 1725623,
        "name": "Belance",
        "state": "",
        "country": "PH",
        "coord": {
            "lon": 121.25,
            "lat": 16.183331
        }
    },
    {
        "id": 1725633,
        "name": "Begang",
        "state": "",
        "country": "PH",
        "coord": {
            "lon": 122.0168,
            "lat": 6.6909
        }
    },
    {
        "id": 1725642,
        "name": "Beddeng",
        "state": "",
        "country": "PH",
        "coord": {
            "lon": 120.08493,
            "lat": 14.97728
        }
    },
    {
        "id": 1725649,
        "name": "Becerril",
        "state": "",
        "country": "PH",
        "coord": {
            "lon": 123.434402,
            "lat": 9.6531
        }
    },
    {
        "id": 1725653,
        "name": "Beberon",
        "state": "",
        "country": "PH",
        "coord": {
            "lon": 123.140503,
            "lat": 13.5444
        }
    },
    {
        "id": 1725676,
        "name": "Bayuin",
        "state": "",
        "country": "PH",
        "coord": {
            "lon": 121.388519,
            "lat": 13.0411
        }
    },
    {
        "id": 1725684,
        "name": "Bayugan",
        "state": "",
        "country": "PH",
        "coord": {
            "lon": 125.767502,
            "lat": 8.75611
        }
    },
    {
        "id": 1725729,
        "name": "Bayombong",
        "state": "",
        "country": "PH",
        "coord": {
            "lon": 121.149696,
            "lat": 16.481199
        }
    },
    {
        "id": 1725731,
        "name": "Bayombong",
        "state": "",
        "country": "PH",
        "coord": {
            "lon": 121.133331,
            "lat": 16.48333
        }
    },
    {
        "id": 1725747,
        "name": "Bayog",
        "state": "",
        "country": "PH",
        "coord": {
            "lon": 123.066673,
            "lat": 7.86667
        }
    },
    {
        "id": 1725761,
        "name": "Baylo",
        "state": "",
        "country": "PH",
        "coord": {
            "lon": 126.05806,
            "lat": 7.85389
        }
    },
    {
        "id": 1725783,
        "name": "Baybayin",
        "state": "",
        "country": "PH",
        "coord": {
            "lon": 121.26992,
            "lat": 13.82083
        }
    },
    {
        "id": 1725794,
        "name": "Baybay",
        "state": "",
        "country": "PH",
        "coord": {
            "lon": 123.713501,
            "lat": 13.4083
        }
    },
    {
        "id": 1725799,
        "name": "Baybay",
        "state": "",
        "country": "PH",
        "coord": {
            "lon": 124.800598,
            "lat": 10.6785
        }
    },
    {
        "id": 1725800,
        "name": "City of Baybay",
        "state": "",
        "country": "PH",
        "coord": {
            "lon": 124.833328,
            "lat": 10.68333
        }
    },
    {
        "id": 1725804,
        "name": "Bayawan",
        "state": "",
        "country": "PH",
        "coord": {
            "lon": 122.801109,
            "lat": 9.36361
        }
    },
    {
        "id": 1725812,
        "name": "Bayasong",
        "state": "",
        "country": "PH",
        "coord": {
            "lon": 124.873062,
            "lat": 6.64889
        }
    },
    {
        "id": 1725817,
        "name": "Bayas",
        "state": "",
        "country": "PH",
        "coord": {
            "lon": 123.181602,
            "lat": 11.4336
        }
    },
    {
        "id": 1725824,
        "name": "Bayaoas",
        "state": "",
        "country": "PH",
        "coord": {
            "lon": 120.262497,
            "lat": 15.8344
        }
    },
    {
        "id": 1725841,
        "name": "Bay-ang",
        "state": "",
        "country": "PH",
        "coord": {
            "lon": 122.941673,
            "lat": 11.03472
        }
    },
    {
        "id": 1725844,
        "name": "Bayang",
        "state": "",
        "country": "PH",
        "coord": {
            "lon": 124.191673,
            "lat": 7.79278
        }
    },
    {
        "id": 1725854,
        "name": "Bayanan",
        "state": "",
        "country": "PH",
        "coord": {
            "lon": 121.169899,
            "lat": 13.3592
        }
    },
    {
        "id": 1725863,
        "name": "Bayambang",
        "state": "",
        "country": "PH",
        "coord": {
            "lon": 120.455704,
            "lat": 15.8127
        }
    },
    {
        "id": 1725864,
        "name": "Bayambang",
        "state": "",
        "country": "PH",
        "coord": {
            "lon": 120.433327,
            "lat": 15.78333
        }
    },
    {
        "id": 1725892,
        "name": "Bayabas",
        "state": "",
        "country": "PH",
        "coord": {
            "lon": 120.51667,
            "lat": 16.450001
        }
    },
    {
        "id": 1725904,
        "name": "Bayabas",
        "state": "",
        "country": "PH",
        "coord": {
            "lon": 126.28611,
            "lat": 8.96972
        }
    },
    {
        "id": 1725919,
        "name": "Bay",
        "state": "",
        "country": "PH",
        "coord": {
            "lon": 121.284798,
            "lat": 14.1831
        }
    },
    {
        "id": 1725921,
        "name": "Bay",
        "state": "",
        "country": "PH",
        "coord": {
            "lon": 121.251198,
            "lat": 14.13333
        }
    },
    {
        "id": 1725923,
        "name": "Bawison",
        "state": "",
        "country": "PH",
        "coord": {
            "lon": 120.874496,
            "lat": 5.9375
        }
    },
    {
        "id": 1725941,
        "name": "Bautista",
        "state": "",
        "country": "PH",
        "coord": {
            "lon": 120.473701,
            "lat": 15.8112
        }
    },
    {
        "id": 1725942,
        "name": "Bautista",
        "state": "",
        "country": "PH",
        "coord": {
            "lon": 121.277779,
            "lat": 13.99444
        }
    },
    {
        "id": 1725947,
        "name": "Baunu-Timbangan",
        "state": "",
        "country": "PH",
        "coord": {
            "lon": 120.994057,
            "lat": 6.00547
        }
    },
    {
        "id": 1725953,
        "name": "Bauko",
        "state": "",
        "country": "PH",
        "coord": {
            "lon": 120.867104,
            "lat": 16.989799
        }
    },
    {
        "id": 1725965,
        "name": "Baugo",
        "state": "",
        "country": "PH",
        "coord": {
            "lon": 123.916672,
            "lat": 10.31667
        }
    },
    {
        "id": 1725983,
        "name": "Bauang",
        "state": "",
        "country": "PH",
        "coord": {
            "lon": 120.333061,
            "lat": 16.53083
        }
    },
    {
        "id": 1725987,
        "name": "Bauang",
        "state": "",
        "country": "PH",
        "coord": {
            "lon": 120.366669,
            "lat": 16.5
        }
    },
    {
        "id": 1725990,
        "name": "Bauan",
        "state": "",
        "country": "PH",
        "coord": {
            "lon": 121.691299,
            "lat": 17.715599
        }
    },
    {
        "id": 1725991,
        "name": "Bauan",
        "state": "",
        "country": "PH",
        "coord": {
            "lon": 121.008499,
            "lat": 13.7917
        }
    },
    {
        "id": 1725992,
        "name": "Bauan",
        "state": "",
        "country": "PH",
        "coord": {
            "lon": 120.98333,
            "lat": 13.8
        }
    },
    {
        "id": 1725998,
        "name": "Bau",
        "state": "",
        "country": "PH",
        "coord": {
            "lon": 124.649719,
            "lat": 7.40528
        }
    },
    {
        "id": 1726000,
        "name": "Batutitik",
        "state": "",
        "country": "PH",
        "coord": {
            "lon": 125.251938,
            "lat": 6.22333
        }
    },
    {
        "id": 1726052,
        "name": "Batuan",
        "state": "",
        "country": "PH",
        "coord": {
            "lon": 123.781799,
            "lat": 12.4215
        }
    },
    {
        "id": 1726064,
        "name": "Batuan",
        "state": "",
        "country": "PH",
        "coord": {
            "lon": 124.148399,
            "lat": 9.7808
        }
    },
    {
        "id": 1726076,
        "name": "Battung",
        "state": "",
        "country": "PH",
        "coord": {
            "lon": 121.457748,
            "lat": 17.72621
        }
    },
    {
        "id": 1726141,
        "name": "Batobalane",
        "state": "",
        "country": "PH",
        "coord": {
            "lon": 122.75,
            "lat": 14.23333
        }
    },
    {
        "id": 1726153,
        "name": "Bato",
        "state": "",
        "country": "PH",
        "coord": {
            "lon": 124.298599,
            "lat": 13.6068
        }
    },
    {
        "id": 1726156,
        "name": "Bato",
        "state": "",
        "country": "PH",
        "coord": {
            "lon": 123.367699,
            "lat": 13.3528
        }
    },
    {
        "id": 1726169,
        "name": "Bato",
        "state": "",
        "country": "PH",
        "coord": {
            "lon": 123.373299,
            "lat": 10.80854
        }
    },
    {
        "id": 1726170,
        "name": "Bato",
        "state": "",
        "country": "PH",
        "coord": {
            "lon": 119.471001,
            "lat": 10.825
        }
    },
    {
        "id": 1726172,
        "name": "Bato",
        "state": "",
        "country": "PH",
        "coord": {
            "lon": 124.791107,
            "lat": 10.32778
        }
    },
    {
        "id": 1726182,
        "name": "Bato",
        "state": "",
        "country": "PH",
        "coord": {
            "lon": 123.644897,
            "lat": 8.6027
        }
    },
    {
        "id": 1726183,
        "name": "Bato",
        "state": "",
        "country": "PH",
        "coord": {
            "lon": 125.473061,
            "lat": 7.04306
        }
    },
    {
        "id": 1726188,
        "name": "Bato",
        "state": "",
        "country": "PH",
        "coord": {
            "lon": 123.333328,
            "lat": 13.31667
        }
    },
    {
        "id": 1726194,
        "name": "Batitang",
        "state": "",
        "country": "PH",
        "coord": {
            "lon": 120.807899,
            "lat": 15.4045
        }
    },
    {
        "id": 1726219,
        "name": "Batiano",
        "state": "",
        "country": "PH",
        "coord": {
            "lon": 126.4907,
            "lat": 7.5534
        }
    },
    {
        "id": 1726225,
        "name": "Bateria",
        "state": "",
        "country": "PH",
        "coord": {
            "lon": 124.026703,
            "lat": 11.1416
        }
    },
    {
        "id": 1726245,
        "name": "Batasan Bata",
        "state": "",
        "country": "PH",
        "coord": {
            "lon": 120.941498,
            "lat": 15.1444
        }
    },
    {
        "id": 1726249,
        "name": "Batasan",
        "state": "",
        "country": "PH",
        "coord": {
            "lon": 120.783333,
            "lat": 12.76667
        }
    },
    {
        "id": 1726251,
        "name": "Batasan",
        "state": "",
        "country": "PH",
        "coord": {
            "lon": 125.050003,
            "lat": 7.03333
        }
    },
    {
        "id": 1726252,
        "name": "Batas",
        "state": "",
        "country": "PH",
        "coord": {
            "lon": 120.816673,
            "lat": 14.2
        }
    },
    {
        "id": 1726256,
        "name": "Batarasa",
        "state": "",
        "country": "PH",
        "coord": {
            "lon": 117.622223,
            "lat": 8.66167
        }
    },
    {
        "id": 1726277,
        "name": "Batangas City",
        "state": "",
        "country": "PH",
        "coord": {
            "lon": 121.050003,
            "lat": 13.75
        }
    },
    {
        "id": 1726279,
        "name": "Province of Batangas",
        "state": "",
        "country": "PH",
        "coord": {
            "lon": 121.083328,
            "lat": 13.91667
        }
    },
    {
        "id": 1726280,
        "name": "Batangas",
        "state": "",
        "country": "PH",
        "coord": {
            "lon": 121.059998,
            "lat": 13.75944
        }
    },
    {
        "id": 1726292,
        "name": "Batana",
        "state": "",
        "country": "PH",
        "coord": {
            "lon": 123.564171,
            "lat": 13.25139
        }
    },
    {
        "id": 1726302,
        "name": "Province of Batanes",
        "state": "",
        "country": "PH",
        "coord": {
            "lon": 121.916672,
            "lat": 20.66667
        }
    },
    {
        "id": 1726312,
        "name": "Batan",
        "state": "",
        "country": "PH",
        "coord": {
            "lon": 122.497101,
            "lat": 11.5857
        }
    },
    {
        "id": 1726320,
        "name": "Batal",
        "state": "",
        "country": "PH",
        "coord": {
            "lon": 121.60083,
            "lat": 16.6875
        }
    },
    {
        "id": 1726323,
        "name": "Bataquil",
        "state": "",
        "country": "PH",
        "coord": {
            "lon": 120.527496,
            "lat": 16.155279
        }
    },
    {
        "id": 1726332,
        "name": "Batad",
        "state": "",
        "country": "PH",
        "coord": {
            "lon": 123.108002,
            "lat": 11.418
        }
    },
    {
        "id": 1726339,
        "name": "Batac City",
        "state": "",
        "country": "PH",
        "coord": {
            "lon": 120.564888,
            "lat": 18.055401
        }
    },
    {
        "id": 1726347,
        "name": "Province of Bataan",
        "state": "",
        "country": "PH",
        "coord": {
            "lon": 120.416672,
            "lat": 14.66667
        }
    },
    {
        "id": 1726361,
        "name": "Basud",
        "state": "",
        "country": "PH",
        "coord": {
            "lon": 122.964203,
            "lat": 14.065
        }
    },
    {
        "id": 1726362,
        "name": "Basud",
        "state": "",
        "country": "PH",
        "coord": {
            "lon": 123.949997,
            "lat": 12.98889
        }
    },
    {
        "id": 1726363,
        "name": "Basud",
        "state": "",
        "country": "PH",
        "coord": {
            "lon": 124.363098,
            "lat": 11.3663
        }
    },
    {
        "id": 1726385,
        "name": "Basista",
        "state": "",
        "country": "PH",
        "coord": {
            "lon": 120.397598,
            "lat": 15.8524
        }
    },
    {
        "id": 1726392,
        "name": "Basing",
        "state": "",
        "country": "PH",
        "coord": {
            "lon": 120.2687,
            "lat": 15.9842
        }
    },
    {
        "id": 1726396,
        "name": "Basilisa",
        "state": "",
        "country": "PH",
        "coord": {
            "lon": 125.5,
            "lat": 10.0
        }
    },
    {
        "id": 1726404,
        "name": "Province of Basilan",
        "state": "",
        "country": "PH",
        "coord": {
            "lon": 122.03492,
            "lat": 6.57864
        }
    },
    {
        "id": 1726408,
        "name": "Basicao Coastal",
        "state": "",
        "country": "PH",
        "coord": {
            "lon": 123.404228,
            "lat": 13.0459
        }
    },
    {
        "id": 1726425,
        "name": "Basiao",
        "state": "",
        "country": "PH",
        "coord": {
            "lon": 122.637497,
            "lat": 11.54861
        }
    },
    {
        "id": 1726431,
        "name": "Basiad",
        "state": "",
        "country": "PH",
        "coord": {
            "lon": 122.337486,
            "lat": 14.15617
        }
    },
    {
        "id": 1726436,
        "name": "Basey",
        "state": "",
        "country": "PH",
        "coord": {
            "lon": 125.068329,
            "lat": 11.28167
        }
    },
    {
        "id": 1726441,
        "name": "Basdiot",
        "state": "",
        "country": "PH",
        "coord": {
            "lon": 123.375153,
            "lat": 9.94718
        }
    },
    {
        "id": 1726449,
        "name": "Basco",
        "state": "",
        "country": "PH",
        "coord": {
            "lon": 121.970169,
            "lat": 20.44865
        }
    },
    {
        "id": 1726451,
        "name": "Basco",
        "state": "",
        "country": "PH",
        "coord": {
            "lon": 121.98333,
            "lat": 20.450001
        }
    },
    {
        "id": 1726454,
        "name": "Bascaron",
        "state": "",
        "country": "PH",
        "coord": {
            "lon": 123.699898,
            "lat": 13.1029
        }
    },
    {
        "id": 1726466,
        "name": "Basay",
        "state": "",
        "country": "PH",
        "coord": {
            "lon": 122.639999,
            "lat": 9.4087
        }
    },
    {
        "id": 1726493,
        "name": "Basak",
        "state": "",
        "country": "PH",
        "coord": {
            "lon": 124.862778,
            "lat": 8.04111
        }
    },
    {
        "id": 1726500,
        "name": "Basak",
        "state": "",
        "country": "PH",
        "coord": {
            "lon": 124.151169,
            "lat": 6.72736
        }
    },
    {
        "id": 1726509,
        "name": "Basag",
        "state": "",
        "country": "PH",
        "coord": {
            "lon": 125.617783,
            "lat": 8.92472
        }
    },
    {
        "id": 1726513,
        "name": "Basak",
        "state": "",
        "country": "PH",
        "coord": {
            "lon": 123.306396,
            "lat": 10.2264
        }
    },
    {
        "id": 1726522,
        "name": "Basa",
        "state": "",
        "country": "PH",
        "coord": {
            "lon": 126.064171,
            "lat": 8.07222
        }
    },
    {
        "id": 1726548,
        "name": "Barugo",
        "state": "",
        "country": "PH",
        "coord": {
            "lon": 124.738327,
            "lat": 11.32417
        }
    },
    {
        "id": 1726552,
        "name": "Barucboc Norte",
        "state": "",
        "country": "PH",
        "coord": {
            "lon": 121.608437,
            "lat": 17.25753
        }
    },
    {
        "id": 1726582,
        "name": "Barra",
        "state": "",
        "country": "PH",
        "coord": {
            "lon": 123.639503,
            "lat": 12.0717
        }
    },
    {
        "id": 1726584,
        "name": "Barra",
        "state": "",
        "country": "PH",
        "coord": {
            "lon": 124.604439,
            "lat": 8.51028
        }
    },
    {
        "id": 1726586,
        "name": "Baroy",
        "state": "",
        "country": "PH",
        "coord": {
            "lon": 123.778397,
            "lat": 8.0269
        }
    },
    {
        "id": 1726591,
        "name": "Barotac Viejo",
        "state": "",
        "country": "PH",
        "coord": {
            "lon": 122.852219,
            "lat": 11.04194
        }
    },
    {
        "id": 1726594,
        "name": "Barotac Nuevo",
        "state": "",
        "country": "PH",
        "coord": {
            "lon": 122.704437,
            "lat": 10.89417
        }
    },
    {
        "id": 1726602,
        "name": "Barongis",
        "state": "",
        "country": "PH",
        "coord": {
            "lon": 124.564171,
            "lat": 7.26111
        }
    },
    {
        "id": 1726606,
        "name": "Barong Barong",
        "state": "",
        "country": "PH",
        "coord": {
            "lon": 117.893898,
            "lat": 8.8535
        }
    },
    {
        "id": 1726608,
        "name": "Barong",
        "state": "",
        "country": "PH",
        "coord": {
            "lon": 120.734001,
            "lat": 18.0576
        }
    },
    {
        "id": 1726623,
        "name": "Barobo",
        "state": "",
        "country": "PH",
        "coord": {
            "lon": 126.121391,
            "lat": 8.53528
        }
    },
    {
        "id": 1726627,
        "name": "Baro",
        "state": "",
        "country": "PH",
        "coord": {
            "lon": 120.666672,
            "lat": 15.98333
        }
    },
    {
        "id": 1726630,
        "name": "Barlig",
        "state": "",
        "country": "PH",
        "coord": {
            "lon": 121.103844,
            "lat": 17.037251
        }
    },
    {
        "id": 1726637,
        "name": "Bariw",
        "state": "",
        "country": "PH",
        "coord": {
            "lon": 123.73333,
            "lat": 13.13333
        }
    },
    {
        "id": 1726655,
        "name": "Barira",
        "state": "",
        "country": "PH",
        "coord": {
            "lon": 124.299171,
            "lat": 7.48722
        }
    },
    {
        "id": 1726670,
        "name": "Barili",
        "state": "",
        "country": "PH",
        "coord": {
            "lon": 123.5103,
            "lat": 10.115
        }
    },
    {
        "id": 1726701,
        "name": "Barcelona",
        "state": "",
        "country": "PH",
        "coord": {
            "lon": 123.0485,
            "lat": 13.7715
        }
    },
    {
        "id": 1726705,
        "name": "Barcelona",
        "state": "",
        "country": "PH",
        "coord": {
            "lon": 124.141899,
            "lat": 12.8683
        }
    },
    {
        "id": 1726707,
        "name": "Barcelona",
        "state": "",
        "country": "PH",
        "coord": {
            "lon": 123.495827,
            "lat": 8.54417
        }
    },
    {
        "id": 1726708,
        "name": "Barcelona",
        "state": "",
        "country": "PH",
        "coord": {
            "lon": 126.434174,
            "lat": 8.15917
        }
    },
    {
        "id": 1726716,
        "name": "Barbaza",
        "state": "",
        "country": "PH",
        "coord": {
            "lon": 122.038612,
            "lat": 11.19572
        }
    },
    {
        "id": 1726733,
        "name": "Barayong",
        "state": "",
        "country": "PH",
        "coord": {
            "lon": 123.716667,
            "lat": 13.1
        }
    },
    {
        "id": 1726765,
        "name": "Baras",
        "state": "",
        "country": "PH",
        "coord": {
            "lon": 121.265099,
            "lat": 14.5234
        }
    },
    {
        "id": 1726766,
        "name": "Baras",
        "state": "",
        "country": "PH",
        "coord": {
            "lon": 124.370003,
            "lat": 13.6588
        }
    },
    {
        "id": 1726772,
        "name": "Baras",
        "state": "",
        "country": "PH",
        "coord": {
            "lon": 125.01667,
            "lat": 11.18333
        }
    },
    {
        "id": 1726781,
        "name": "Baras",
        "state": "",
        "country": "PH",
        "coord": {
            "lon": 121.26667,
            "lat": 14.53333
        }
    },
    {
        "id": 1726802,
        "name": "Barangobong",
        "state": "",
        "country": "PH",
        "coord": {
            "lon": 120.548332,
            "lat": 15.87778
        }
    },
    {
        "id": 1726832,
        "name": "Barahan",
        "state": "",
        "country": "PH",
        "coord": {
            "lon": 120.762001,
            "lat": 13.0121
        }
    },
    {
        "id": 1726844,
        "name": "Baracatan",
        "state": "",
        "country": "PH",
        "coord": {
            "lon": 125.415833,
            "lat": 6.9675
        }
    },
    {
        "id": 1726865,
        "name": "Baquero Norte",
        "state": "",
        "country": "PH",
        "coord": {
            "lon": 120.554298,
            "lat": 15.7162
        }
    },
    {
        "id": 1726883,
        "name": "Baon",
        "state": "",
        "country": "PH",
        "coord": {
            "lon": 126.087784,
            "lat": 6.79562
        }
    },
    {
        "id": 1726890,
        "name": "Baud",
        "state": "",
        "country": "PH",
        "coord": {
            "lon": 123.703102,
            "lat": 11.2111
        }
    },
    {
        "id": 1726909,
        "name": "Banwalan",
        "state": "",
        "country": "PH",
        "coord": {
            "lon": 125.142502,
            "lat": 6.04667
        }
    },
    {
        "id": 1726957,
        "name": "Bantuanon",
        "state": "",
        "country": "PH",
        "coord": {
            "lon": 125.070831,
            "lat": 8.01528
        }
    },
    {
        "id": 1726977,
        "name": "Bantogon",
        "state": "",
        "country": "PH",
        "coord": {
            "lon": 124.033333,
            "lat": 6.53333
        }
    },
    {
        "id": 1726979,
        "name": "Bantog",
        "state": "",
        "country": "PH",
        "coord": {
            "lon": 120.692902,
            "lat": 16.0091
        }
    },
    {
        "id": 1726994,
        "name": "Bantilan",
        "state": "",
        "country": "PH",
        "coord": {
            "lon": 121.665558,
            "lat": 14.75194
        }
    },
    {
        "id": 1727015,
        "name": "Bantiqui",
        "state": "",
        "country": "PH",
        "coord": {
            "lon": 124.415398,
            "lat": 10.9245
        }
    },
    {
        "id": 1727042,
        "name": "Bantayan",
        "state": "",
        "country": "PH",
        "coord": {
            "lon": 124.8283,
            "lat": 12.5237
        }
    },
    {
        "id": 1727043,
        "name": "Bantayan",
        "state": "",
        "country": "PH",
        "coord": {
            "lon": 123.722298,
            "lat": 11.1683
        }
    },
    {
        "id": 1727048,
        "name": "Bantayan",
        "state": "",
        "country": "PH",
        "coord": {
            "lon": 123.73333,
            "lat": 11.2
        }
    },
    {
        "id": 1727052,
        "name": "Bantay",
        "state": "",
        "country": "PH",
        "coord": {
            "lon": 120.389168,
            "lat": 17.584721
        }
    },
    {
        "id": 1727053,
        "name": "Bantay",
        "state": "",
        "country": "PH",
        "coord": {
            "lon": 120.757751,
            "lat": 17.437929
        }
    },
    {
        "id": 1727073,
        "name": "Bansud",
        "state": "",
        "country": "PH",
        "coord": {
            "lon": 121.45639,
            "lat": 12.865
        }
    },
    {
        "id": 1727080,
        "name": "Bansalan",
        "state": "",
        "country": "PH",
        "coord": {
            "lon": 125.213333,
            "lat": 6.78611
        }
    },
    {
        "id": 1727081,
        "name": "Bansalan",
        "state": "",
        "country": "PH",
        "coord": {
            "lon": 125.216667,
            "lat": 6.81667
        }
    },
    {
        "id": 1727087,
        "name": "Bangkirohan",
        "state": "",
        "country": "PH",
        "coord": {
            "lon": 123.749443,
            "lat": 13.05694
        }
    },
    {
        "id": 1727089,
        "name": "Banquero",
        "state": "",
        "country": "PH",
        "coord": {
            "lon": 121.778343,
            "lat": 17.02305
        }
    },
    {
        "id": 1727099,
        "name": "Banos",
        "state": "",
        "country": "PH",
        "coord": {
            "lon": 120.909721,
            "lat": 12.64553
        }
    },
    {
        "id": 1727102,
        "name": "Banog Sur",
        "state": "",
        "country": "PH",
        "coord": {
            "lon": 119.894096,
            "lat": 16.1672
        }
    },
    {
        "id": 1727111,
        "name": "Banugao",
        "state": "",
        "country": "PH",
        "coord": {
            "lon": 121.633331,
            "lat": 14.73333
        }
    },
    {
        "id": 1727115,
        "name": "Banocboc",
        "state": "",
        "country": "PH",
        "coord": {
            "lon": 122.583328,
            "lat": 14.3
        }
    },
    {
        "id": 1727148,
        "name": "Bankaw",
        "state": "",
        "country": "PH",
        "coord": {
            "lon": 120.009102,
            "lat": 5.0192
        }
    },
    {
        "id": 1727161,
        "name": "Banisilan",
        "state": "",
        "country": "PH",
        "coord": {
            "lon": 124.724167,
            "lat": 7.49083
        }
    },
    {
        "id": 1727174,
        "name": "Banilad",
        "state": "",
        "country": "PH",
        "coord": {
            "lon": 120.734703,
            "lat": 14.0667
        }
    },
    {
        "id": 1727179,
        "name": "Banilad",
        "state": "",
        "country": "PH",
        "coord": {
            "lon": 123.29583,
            "lat": 9.27694
        }
    },
    {
        "id": 1727193,
        "name": "Bani",
        "state": "",
        "country": "PH",
        "coord": {
            "lon": 119.861298,
            "lat": 16.184999
        }
    },
    {
        "id": 1727196,
        "name": "Bani",
        "state": "",
        "country": "PH",
        "coord": {
            "lon": 119.933502,
            "lat": 15.5823
        }
    },
    {
        "id": 1727201,
        "name": "Banhigan",
        "state": "",
        "country": "PH",
        "coord": {
            "lon": 123.389259,
            "lat": 9.85902
        }
    },
    {
        "id": 1727211,
        "name": "Bangui",
        "state": "",
        "country": "PH",
        "coord": {
            "lon": 120.767097,
            "lat": 18.5376
        }
    },
    {
        "id": 1727214,
        "name": "Bangued",
        "state": "",
        "country": "PH",
        "coord": {
            "lon": 120.638062,
            "lat": 17.60833
        }
    },
    {
        "id": 1727215,
        "name": "Bangued",
        "state": "",
        "country": "PH",
        "coord": {
            "lon": 120.615501,
            "lat": 17.5982
        }
    },
    {
        "id": 1727233,
        "name": "Gamay",
        "state": "",
        "country": "PH",
        "coord": {
            "lon": 125.236603,
            "lat": 12.3638
        }
    },
    {
        "id": 1727237,
        "name": "Bangonay",
        "state": "",
        "country": "PH",
        "coord": {
            "lon": 125.553886,
            "lat": 9.31444
        }
    },
    {
        "id": 1727268,
        "name": "Bangkal",
        "state": "",
        "country": "PH",
        "coord": {
            "lon": 121.066673,
            "lat": 6.06667
        }
    },
    {
        "id": 1727281,
        "name": "Bangculasi",
        "state": "",
        "country": "PH",
        "coord": {
            "lon": 120.949997,
            "lat": 14.65
        }
    },
    {
        "id": 1727326,
        "name": "Bangar",
        "state": "",
        "country": "PH",
        "coord": {
            "lon": 120.424301,
            "lat": 16.8936
        }
    },
    {
        "id": 1727336,
        "name": "Bangao",
        "state": "",
        "country": "PH",
        "coord": {
            "lon": 120.840401,
            "lat": 16.8211
        }
    },
    {
        "id": 1727340,
        "name": "Bangan-Oda",
        "state": "",
        "country": "PH",
        "coord": {
            "lon": 119.830704,
            "lat": 16.1087
        }
    },
    {
        "id": 1727347,
        "name": "Banganan",
        "state": "",
        "country": "PH",
        "coord": {
            "lon": 121.054398,
            "lat": 16.3144
        }
    },
    {
        "id": 1727358,
        "name": "Bangahan",
        "state": "",
        "country": "PH",
        "coord": {
            "lon": 124.728889,
            "lat": 7.80444
        }
    },
    {
        "id": 1727367,
        "name": "Bangad",
        "state": "",
        "country": "PH",
        "coord": {
            "lon": 121.781853,
            "lat": 17.49572
        }
    },
    {
        "id": 1727369,
        "name": "Bangad",
        "state": "",
        "country": "PH",
        "coord": {
            "lon": 121.027496,
            "lat": 15.50361
        }
    },
    {
        "id": 1727373,
        "name": "Bangad",
        "state": "",
        "country": "PH",
        "coord": {
            "lon": 123.401314,
            "lat": 12.16125
        }
    },
    {
        "id": 1727396,
        "name": "Ba単ga",
        "state": "",
        "country": "PH",
        "coord": {
            "lon": 122.334099,
            "lat": 11.6387
        }
    },
    {
        "id": 1727398,
        "name": "Banga",
        "state": "",
        "country": "PH",
        "coord": {
            "lon": 122.828903,
            "lat": 10.5018
        }
    },
    {
        "id": 1727400,
        "name": "Ba単ga",
        "state": "",
        "country": "PH",
        "coord": {
            "lon": 124.778328,
            "lat": 6.42389
        }
    },
    {
        "id": 1727445,
        "name": "Bancasi",
        "state": "",
        "country": "PH",
        "coord": {
            "lon": 125.466667,
            "lat": 8.96667
        }
    },
    {
        "id": 1727450,
        "name": "Bancao-Bancao",
        "state": "",
        "country": "PH",
        "coord": {
            "lon": 118.766113,
            "lat": 9.73083
        }
    },
    {
        "id": 1727471,
        "name": "Bancal",
        "state": "",
        "country": "PH",
        "coord": {
            "lon": 123.155098,
            "lat": 11.5591
        }
    },
    {
        "id": 1727472,
        "name": "Bankal",
        "state": "",
        "country": "PH",
        "coord": {
            "lon": 123.980827,
            "lat": 10.30083
        }
    },
    {
        "id": 1727513,
        "name": "Banayoyo",
        "state": "",
        "country": "PH",
        "coord": {
            "lon": 120.48333,
            "lat": 17.23333
        }
    },
    {
        "id": 1727521,
        "name": "Banaybanay",
        "state": "",
        "country": "PH",
        "coord": {
            "lon": 121.116669,
            "lat": 13.93333
        }
    },
    {
        "id": 1727522,
        "name": "Banaybanay",
        "state": "",
        "country": "PH",
        "coord": {
            "lon": 121.199997,
            "lat": 13.85
        }
    },
    {
        "id": 1727524,
        "name": "Banaybanay",
        "state": "",
        "country": "PH",
        "coord": {
            "lon": 126.017174,
            "lat": 6.96233
        }
    },
    {
        "id": 1727529,
        "name": "Banaue",
        "state": "",
        "country": "PH",
        "coord": {
            "lon": 121.061836,
            "lat": 16.913561
        }
    },
    {
        "id": 1727531,
        "name": "Banawang",
        "state": "",
        "country": "PH",
        "coord": {
            "lon": 120.389999,
            "lat": 14.6121
        }
    },
    {
        "id": 1727533,
        "name": "Banawa",
        "state": "",
        "country": "PH",
        "coord": {
            "lon": 124.866669,
            "lat": 7.15361
        }
    },
    {
        "id": 1727544,
        "name": "Banate",
        "state": "",
        "country": "PH",
        "coord": {
            "lon": 122.817497,
            "lat": 11.00222
        }
    },
    {
        "id": 1727589,
        "name": "Banalo",
        "state": "",
        "country": "PH",
        "coord": {
            "lon": 121.181702,
            "lat": 13.6464
        }
    },
    {
        "id": 1727614,
        "name": "Banag",
        "state": "",
        "country": "PH",
        "coord": {
            "lon": 123.703331,
            "lat": 13.37889
        }
    },
    {
        "id": 1727642,
        "name": "Banaba",
        "state": "",
        "country": "PH",
        "coord": {
            "lon": 120.849998,
            "lat": 14.21667
        }
    },
    {
        "id": 1727643,
        "name": "Banaba",
        "state": "",
        "country": "PH",
        "coord": {
            "lon": 121.199997,
            "lat": 13.9
        }
    },
    {
        "id": 1727663,
        "name": "Bambang",
        "state": "",
        "country": "PH",
        "coord": {
            "lon": 121.106598,
            "lat": 16.386499
        }
    },
    {
        "id": 1727673,
        "name": "Bambang",
        "state": "",
        "country": "PH",
        "coord": {
            "lon": 121.099998,
            "lat": 16.383329
        }
    },
    {
        "id": 1727679,
        "name": "Bamban",
        "state": "",
        "country": "PH",
        "coord": {
            "lon": 120.331497,
            "lat": 15.6747
        }
    },
    {
        "id": 1727698,
        "name": "Baluyot",
        "state": "",
        "country": "PH",
        "coord": {
            "lon": 120.462097,
            "lat": 15.8017
        }
    },
    {
        "id": 1727701,
        "name": "Balutu",
        "state": "",
        "country": "PH",
        "coord": {
            "lon": 120.692833,
            "lat": 15.29886
        }
    },
    {
        "id": 1727711,
        "name": "Balutakay",
        "state": "",
        "country": "PH",
        "coord": {
            "lon": 125.351669,
            "lat": 6.72111
        }
    },
    {
        "id": 1727715,
        "name": "Balut",
        "state": "",
        "country": "PH",
        "coord": {
            "lon": 120.550003,
            "lat": 14.68333
        }
    },
    {
        "id": 1727734,
        "name": "Balungao",
        "state": "",
        "country": "PH",
        "coord": {
            "lon": 120.688332,
            "lat": 15.89806
        }
    },
    {
        "id": 1727760,
        "name": "Balugo",
        "state": "",
        "country": "PH",
        "coord": {
            "lon": 121.439308,
            "lat": 12.57923
        }
    },
    {
        "id": 1727783,
        "name": "Balud",
        "state": "",
        "country": "PH",
        "coord": {
            "lon": 123.193512,
            "lat": 12.03686
        }
    },
    {
        "id": 1727785,
        "name": "Balud",
        "state": "",
        "country": "PH",
        "coord": {
            "lon": 125.433327,
            "lat": 11.61667
        }
    },
    {
        "id": 1727792,
        "name": "Balud",
        "state": "",
        "country": "PH",
        "coord": {
            "lon": 123.695297,
            "lat": 10.1476
        }
    },
    {
        "id": 1727795,
        "name": "Balucuc",
        "state": "",
        "country": "PH",
        "coord": {
            "lon": 120.837784,
            "lat": 14.96361
        }
    },
    {
        "id": 1727842,
        "name": "Balsic",
        "state": "",
        "country": "PH",
        "coord": {
            "lon": 120.483612,
            "lat": 14.85889
        }
    },
    {
        "id": 1727854,
        "name": "Baloy",
        "state": "",
        "country": "PH",
        "coord": {
            "lon": 120.7742,
            "lat": 15.8053
        }
    },
    {
        "id": 1727861,
        "name": "Bal-os",
        "state": "",
        "country": "PH",
        "coord": {
            "lon": 122.625702,
            "lat": 9.4416
        }
    },
    {
        "id": 1727889,
        "name": "Mamungan",
        "state": "",
        "country": "PH",
        "coord": {
            "lon": 124.218613,
            "lat": 8.11722
        }
    },
    {
        "id": 1727897,
        "name": "Balogo",
        "state": "",
        "country": "PH",
        "coord": {
            "lon": 120.282204,
            "lat": 15.9898
        }
    },
    {
        "id": 1727901,
        "name": "Balogo",
        "state": "",
        "country": "PH",
        "coord": {
            "lon": 123.063797,
            "lat": 13.5016
        }
    },
    {
        "id": 1727904,
        "name": "Balogo",
        "state": "",
        "country": "PH",
        "coord": {
            "lon": 123.549599,
            "lat": 13.2871
        }
    },
    {
        "id": 1727909,
        "name": "Balogo",
        "state": "",
        "country": "PH",
        "coord": {
            "lon": 124.710503,
            "lat": 10.8868
        }
    },
    {
        "id": 1727911,
        "name": "Balogo",
        "state": "",
        "country": "PH",
        "coord": {
            "lon": 123.170601,
            "lat": 10.1148
        }
    },
    {
        "id": 1727914,
        "name": "Balogo",
        "state": "",
        "country": "PH",
        "coord": {
            "lon": 124.463882,
            "lat": 7.2823
        }
    },
    {
        "id": 1727929,
        "name": "Balocawehay",
        "state": "",
        "country": "PH",
        "coord": {
            "lon": 124.967796,
            "lat": 10.7221
        }
    },
    {
        "id": 1727937,
        "name": "Balucawi",
        "state": "",
        "country": "PH",
        "coord": {
            "lon": 123.842598,
            "lat": 12.2013
        }
    },
    {
        "id": 1727940,
        "name": "Baloc",
        "state": "",
        "country": "PH",
        "coord": {
            "lon": 120.885201,
            "lat": 15.6435
        }
    },
    {
        "id": 1727962,
        "name": "Ballesteros",
        "state": "",
        "country": "PH",
        "coord": {
            "lon": 121.515198,
            "lat": 18.4126
        }
    },
    {
        "id": 1727976,
        "name": "Baliwasan",
        "state": "",
        "country": "PH",
        "coord": {
            "lon": 122.054382,
            "lat": 6.91534
        }
    },
    {
        "id": 1727982,
        "name": "Baliwagan",
        "state": "",
        "country": "PH",
        "coord": {
            "lon": 124.790558,
            "lat": 8.71861
        }
    },
    {
        "id": 1727990,
        "name": "Baliuag Nuevo",
        "state": "",
        "country": "PH",
        "coord": {
            "lon": 123.201599,
            "lat": 13.5214
        }
    },
    {
        "id": 1727993,
        "name": "Baliwagan",
        "state": "",
        "country": "PH",
        "coord": {
            "lon": 122.891098,
            "lat": 10.3971
        }
    },
    {
        "id": 1727995,
        "name": "Baliuag",
        "state": "",
        "country": "PH",
        "coord": {
            "lon": 120.896942,
            "lat": 14.95472
        }
    },
    {
        "id": 1727996,
        "name": "Baliuag",
        "state": "",
        "country": "PH",
        "coord": {
            "lon": 120.883331,
            "lat": 14.93333
        }
    },
    {
        "id": 1727999,
        "name": "Baliton",
        "state": "",
        "country": "PH",
        "coord": {
            "lon": 125.236389,
            "lat": 5.74361
        }
    },
    {
        "id": 1728001,
        "name": "Balitoc",
        "state": "",
        "country": "PH",
        "coord": {
            "lon": 120.635536,
            "lat": 13.86269
        }
    },
    {
        "id": 1728002,
        "name": "Balite Segundo",
        "state": "",
        "country": "PH",
        "coord": {
            "lon": 120.976852,
            "lat": 14.1669
        }
    },
    {
        "id": 1728019,
        "name": "Balite",
        "state": "",
        "country": "PH",
        "coord": {
            "lon": 120.783333,
            "lat": 14.9
        }
    },
    {
        "id": 1728074,
        "name": "Balinsacayao",
        "state": "",
        "country": "PH",
        "coord": {
            "lon": 124.959503,
            "lat": 10.681
        }
    },
    {
        "id": 1728078,
        "name": "Balingueo",
        "state": "",
        "country": "PH",
        "coord": {
            "lon": 120.408096,
            "lat": 15.9555
        }
    },
    {
        "id": 1728082,
        "name": "Balingoan",
        "state": "",
        "country": "PH",
        "coord": {
            "lon": 124.851936,
            "lat": 9.00389
        }
    },
    {
        "id": 1728085,
        "name": "Balingcanaway",
        "state": "",
        "country": "PH",
        "coord": {
            "lon": 120.685562,
            "lat": 15.48167
        }
    },
    {
        "id": 1728091,
        "name": "Balingasay",
        "state": "",
        "country": "PH",
        "coord": {
            "lon": 119.8564,
            "lat": 16.3573
        }
    },
    {
        "id": 1728098,
        "name": "Balingasag",
        "state": "",
        "country": "PH",
        "coord": {
            "lon": 124.776939,
            "lat": 8.74417
        }
    },
    {
        "id": 1728103,
        "name": "Balindong",
        "state": "",
        "country": "PH",
        "coord": {
            "lon": 124.200279,
            "lat": 7.91667
        }
    },
    {
        "id": 1728118,
        "name": "Balinad",
        "state": "",
        "country": "PH",
        "coord": {
            "lon": 123.545403,
            "lat": 13.2926
        }
    },
    {
        "id": 1728125,
        "name": "Balimbing",
        "state": "",
        "country": "PH",
        "coord": {
            "lon": 119.965828,
            "lat": 5.0825
        }
    },
    {
        "id": 1728134,
        "name": "Balilihan",
        "state": "",
        "country": "PH",
        "coord": {
            "lon": 123.973,
            "lat": 9.7561
        }
    },
    {
        "id": 1728141,
        "name": "Balili",
        "state": "",
        "country": "PH",
        "coord": {
            "lon": 123.733704,
            "lat": 7.895
        }
    },
    {
        "id": 1728145,
        "name": "Balila",
        "state": "",
        "country": "PH",
        "coord": {
            "lon": 125.013062,
            "lat": 8.00278
        }
    },
    {
        "id": 1728159,
        "name": "Baligidian",
        "state": "",
        "country": "PH",
        "coord": {
            "lon": 125.199997,
            "lat": 8.63333
        }
    },
    {
        "id": 1728165,
        "name": "Baligang",
        "state": "",
        "country": "PH",
        "coord": {
            "lon": 123.643204,
            "lat": 13.1537
        }
    },
    {
        "id": 1728196,
        "name": "Balibago",
        "state": "",
        "country": "PH",
        "coord": {
            "lon": 120.595398,
            "lat": 15.1624
        }
    },
    {
        "id": 1728203,
        "name": "Balibago",
        "state": "",
        "country": "PH",
        "coord": {
            "lon": 120.625557,
            "lat": 13.92572
        }
    },
    {
        "id": 1728204,
        "name": "Balibago",
        "state": "",
        "country": "PH",
        "coord": {
            "lon": 121.297096,
            "lat": 13.6093
        }
    },
    {
        "id": 1728205,
        "name": "Balibagan Oeste",
        "state": "",
        "country": "PH",
        "coord": {
            "lon": 122.51667,
            "lat": 10.8
        }
    },
    {
        "id": 1728236,
        "name": "Balite",
        "state": "",
        "country": "PH",
        "coord": {
            "lon": 120.638329,
            "lat": 15.64694
        }
    },
    {
        "id": 1728240,
        "name": "Balete",
        "state": "",
        "country": "PH",
        "coord": {
            "lon": 121.095062,
            "lat": 14.01983
        }
    },
    {
        "id": 1728248,
        "name": "Balete",
        "state": "",
        "country": "PH",
        "coord": {
            "lon": 124.031937,
            "lat": 13.01917
        }
    },
    {
        "id": 1728249,
        "name": "Calamundingan",
        "state": "",
        "country": "PH",
        "coord": {
            "lon": 121.470619,
            "lat": 12.93101
        }
    },
    {
        "id": 1728252,
        "name": "Balete",
        "state": "",
        "country": "PH",
        "coord": {
            "lon": 122.380302,
            "lat": 11.5556
        }
    },
    {
        "id": 1728264,
        "name": "Baler",
        "state": "",
        "country": "PH",
        "coord": {
            "lon": 121.560699,
            "lat": 15.7589
        }
    },
    {
        "id": 1728272,
        "name": "Baleno",
        "state": "",
        "country": "PH",
        "coord": {
            "lon": 123.498199,
            "lat": 12.4739
        }
    },
    {
        "id": 1728275,
        "name": "Balele",
        "state": "",
        "country": "PH",
        "coord": {
            "lon": 121.093628,
            "lat": 14.06532
        }
    },
    {
        "id": 1728304,
        "name": "Balbalan",
        "state": "",
        "country": "PH",
        "coord": {
            "lon": 121.201942,
            "lat": 17.441389
        }
    },
    {
        "id": 1728318,
        "name": "Balayong",
        "state": "",
        "country": "PH",
        "coord": {
            "lon": 123.062302,
            "lat": 9.4744
        }
    },
    {
        "id": 1728334,
        "name": "Balayang",
        "state": "",
        "country": "PH",
        "coord": {
            "lon": 120.694298,
            "lat": 15.5495
        }
    },
    {
        "id": 1728336,
        "name": "Balayan",
        "state": "",
        "country": "PH",
        "coord": {
            "lon": 120.732239,
            "lat": 13.93714
        }
    },
    {
        "id": 1728337,
        "name": "Balayan",
        "state": "",
        "country": "PH",
        "coord": {
            "lon": 120.73333,
            "lat": 13.98333
        }
    },
    {
        "id": 1728382,
        "name": "Balatero",
        "state": "",
        "country": "PH",
        "coord": {
            "lon": 120.9244,
            "lat": 13.5021
        }
    },
    {
        "id": 1728389,
        "name": "Balatan",
        "state": "",
        "country": "PH",
        "coord": {
            "lon": 123.23333,
            "lat": 13.32111
        }
    },
    {
        "id": 1728401,
        "name": "Balasing",
        "state": "",
        "country": "PH",
        "coord": {
            "lon": 121.012703,
            "lat": 14.8545
        }
    },
    {
        "id": 1728411,
        "name": "Balasan",
        "state": "",
        "country": "PH",
        "coord": {
            "lon": 123.087799,
            "lat": 11.4728
        }
    },
    {
        "id": 1728415,
        "name": "Balas",
        "state": "",
        "country": "PH",
        "coord": {
            "lon": 122.138062,
            "lat": 6.6875
        }
    },
    {
        "id": 1728433,
        "name": "Balaogan",
        "state": "",
        "country": "PH",
        "coord": {
            "lon": 123.281799,
            "lat": 13.4328
        }
    },
    {
        "id": 1728438,
        "name": "Balaoang",
        "state": "",
        "country": "PH",
        "coord": {
            "lon": 120.514702,
            "lat": 15.6633
        }
    },
    {
        "id": 1728439,
        "name": "Balaoan",
        "state": "",
        "country": "PH",
        "coord": {
            "lon": 120.404503,
            "lat": 16.821899
        }
    },
    {
        "id": 1728486,
        "name": "Balangonan",
        "state": "",
        "country": "PH",
        "coord": {
            "lon": 125.353889,
            "lat": 5.57333
        }
    },
    {
        "id": 1728493,
        "name": "Balangkayan",
        "state": "",
        "country": "PH",
        "coord": {
            "lon": 125.510559,
            "lat": 11.47139
        }
    },
    {
        "id": 1728500,
        "name": "Balangiga",
        "state": "",
        "country": "PH",
        "coord": {
            "lon": 125.387497,
            "lat": 11.10972
        }
    },
    {
        "id": 1728504,
        "name": "Balangbalang",
        "state": "",
        "country": "PH",
        "coord": {
            "lon": 125.62278,
            "lat": 9.05694
        }
    },
    {
        "id": 1728523,
        "name": "Balanga",
        "state": "",
        "country": "PH",
        "coord": {
            "lon": 120.53611,
            "lat": 14.67611
        }
    },
    {
        "id": 1728527,
        "name": "City of Balanga",
        "state": "",
        "country": "PH",
        "coord": {
            "lon": 120.449997,
            "lat": 14.71667
        }
    },
    {
        "id": 1728539,
        "name": "Balanacan",
        "state": "",
        "country": "PH",
        "coord": {
            "lon": 121.867699,
            "lat": 13.5289
        }
    },
    {
        "id": 1728546,
        "name": "Balamban",
        "state": "",
        "country": "PH",
        "coord": {
            "lon": 123.715599,
            "lat": 10.5039
        }
    },
    {
        "id": 1728547,
        "name": "Balamban",
        "state": "",
        "country": "PH",
        "coord": {
            "lon": 123.783333,
            "lat": 10.46667
        }
    },
    {
        "id": 1728573,
        "name": "Balagunan",
        "state": "",
        "country": "PH",
        "coord": {
            "lon": 125.521111,
            "lat": 7.49222
        }
    },
    {
        "id": 1728576,
        "name": "Balagui",
        "state": "",
        "country": "PH",
        "coord": {
            "lon": 124.532402,
            "lat": 11.4752
        }
    },
    {
        "id": 1728579,
        "name": "Balagtas",
        "state": "",
        "country": "PH",
        "coord": {
            "lon": 124.519203,
            "lat": 11.1333
        }
    },
    {
        "id": 1728582,
        "name": "Balagtasin",
        "state": "",
        "country": "PH",
        "coord": {
            "lon": 121.088898,
            "lat": 13.9018
        }
    },
    {
        "id": 1728584,
        "name": "Balagtas",
        "state": "",
        "country": "PH",
        "coord": {
            "lon": 120.866669,
            "lat": 14.81667
        }
    },
    {
        "id": 1728587,
        "name": "Balagtas (Bigaa)",
        "state": "",
        "country": "PH",
        "coord": {
            "lon": 120.866669,
            "lat": 14.81667
        }
    },
    {
        "id": 1728590,
        "name": "Balagon",
        "state": "",
        "country": "PH",
        "coord": {
            "lon": 123.239601,
            "lat": 8.0063
        }
    },
    {
        "id": 1728621,
        "name": "Balading",
        "state": "",
        "country": "PH",
        "coord": {
            "lon": 123.712097,
            "lat": 13.3906
        }
    },
    {
        "id": 1728653,
        "name": "Balabagan",
        "state": "",
        "country": "PH",
        "coord": {
            "lon": 124.114166,
            "lat": 7.52639
        }
    },
    {
        "id": 1728659,
        "name": "Balabag",
        "state": "",
        "country": "PH",
        "coord": {
            "lon": 121.919167,
            "lat": 11.97
        }
    },
    {
        "id": 1728664,
        "name": "Balabag",
        "state": "",
        "country": "PH",
        "coord": {
            "lon": 122.493057,
            "lat": 10.76333
        }
    },
    {
        "id": 1728675,
        "name": "Balabac",
        "state": "",
        "country": "PH",
        "coord": {
            "lon": 117.064499,
            "lat": 7.9868
        }
    },
    {
        "id": 1728688,
        "name": "Bakung",
        "state": "",
        "country": "PH",
        "coord": {
            "lon": 119.794167,
            "lat": 4.89111
        }
    },
    {
        "id": 1728689,
        "name": "Bakun",
        "state": "",
        "country": "PH",
        "coord": {
            "lon": 120.663101,
            "lat": 16.789499
        }
    },
    {
        "id": 1728715,
        "name": "Bachauan",
        "state": "",
        "country": "PH",
        "coord": {
            "lon": 123.963402,
            "lat": 11.2067
        }
    },
    {
        "id": 1728735,
        "name": "Brgy. Bachaw Norte, Kalibo",
        "state": "",
        "country": "PH",
        "coord": {
            "lon": 122.378059,
            "lat": 11.71806
        }
    },
    {
        "id": 1728748,
        "name": "Baka",
        "state": "",
        "country": "PH",
        "coord": {
            "lon": 124.264168,
            "lat": 7.27611
        }
    },
    {
        "id": 1728772,
        "name": "Bais",
        "state": "",
        "country": "PH",
        "coord": {
            "lon": 123.12278,
            "lat": 9.59111
        }
    },
    {
        "id": 1728780,
        "name": "Bairan",
        "state": "",
        "country": "PH",
        "coord": {
            "lon": 123.727097,
            "lat": 10.19718
        }
    },
    {
        "id": 1728789,
        "name": "Bailan",
        "state": "",
        "country": "PH",
        "coord": {
            "lon": 122.830101,
            "lat": 11.4584
        }
    },
    {
        "id": 1728792,
        "name": "Bail",
        "state": "",
        "country": "PH",
        "coord": {
            "lon": 120.400398,
            "lat": 16.286699
        }
    },
    {
        "id": 1728793,
        "name": "Baikingon",
        "state": "",
        "country": "PH",
        "coord": {
            "lon": 124.553612,
            "lat": 8.47222
        }
    },
    {
        "id": 1728823,
        "name": "Baheli",
        "state": "",
        "country": "PH",
        "coord": {
            "lon": 118.785698,
            "lat": 9.996
        }
    },
    {
        "id": 1728825,
        "name": "Bah-Bah",
        "state": "",
        "country": "PH",
        "coord": {
            "lon": 125.914436,
            "lat": 8.60722
        }
    },
    {
        "id": 1728830,
        "name": "Bahay Pare",
        "state": "",
        "country": "PH",
        "coord": {
            "lon": 120.881699,
            "lat": 15.0336
        }
    },
    {
        "id": 1728837,
        "name": "Bahay",
        "state": "",
        "country": "PH",
        "coord": {
            "lon": 123.040703,
            "lat": 13.5437
        }
    },
    {
        "id": 1728852,
        "name": "Bao",
        "state": "",
        "country": "PH",
        "coord": {
            "lon": 122.831398,
            "lat": 13.6414
        }
    },
    {
        "id": 1728866,
        "name": "Bagupaye",
        "state": "",
        "country": "PH",
        "coord": {
            "lon": 122.393608,
            "lat": 13.56889
        }
    },
    {
        "id": 1728882,
        "name": "Bagombong",
        "state": "",
        "country": "PH",
        "coord": {
            "lon": 121.377502,
            "lat": 14.3413
        }
    },
    {
        "id": 1728883,
        "name": "Bagumbayan",
        "state": "",
        "country": "PH",
        "coord": {
            "lon": 121.663254,
            "lat": 18.19688
        }
    },
    {
        "id": 1728884,
        "name": "Bagumbayan",
        "state": "",
        "country": "PH",
        "coord": {
            "lon": 121.446953,
            "lat": 17.72271
        }
    },
    {
        "id": 1728893,
        "name": "Bagumbayan",
        "state": "",
        "country": "PH",
        "coord": {
            "lon": 123.666672,
            "lat": 13.45
        }
    },
    {
        "id": 1728894,
        "name": "Bagumbayan",
        "state": "",
        "country": "PH",
        "coord": {
            "lon": 123.3899,
            "lat": 13.4653
        }
    },
    {
        "id": 1728902,
        "name": "Bagumbayan",
        "state": "",
        "country": "PH",
        "coord": {
            "lon": 122.834801,
            "lat": 10.446
        }
    },
    {
        "id": 1728914,
        "name": "Bagulin",
        "state": "",
        "country": "PH",
        "coord": {
            "lon": 120.439438,
            "lat": 16.60833
        }
    },
    {
        "id": 1728929,
        "name": "Baguio City",
        "state": "",
        "country": "PH",
        "coord": {
            "lon": 120.599998,
            "lat": 16.41667
        }
    },
    {
        "id": 1728930,
        "name": "Baguio",
        "state": "",
        "country": "PH",
        "coord": {
            "lon": 120.593063,
            "lat": 16.416389
        }
    },
    {
        "id": 1728936,
        "name": "Baguinge",
        "state": "",
        "country": "PH",
        "coord": {
            "lon": 121.106239,
            "lat": 16.77767
        }
    },
    {
        "id": 1728952,
        "name": "Baguer",
        "state": "",
        "country": "PH",
        "coord": {
            "lon": 124.504173,
            "lat": 7.25611
        }
    },
    {
        "id": 1728968,
        "name": "Bagu",
        "state": "",
        "country": "PH",
        "coord": {
            "lon": 121.35833,
            "lat": 18.422779
        }
    },
    {
        "id": 1728984,
        "name": "Bagtic",
        "state": "",
        "country": "PH",
        "coord": {
            "lon": 123.012199,
            "lat": 9.6864
        }
    },
    {
        "id": 1729001,
        "name": "Bagroy",
        "state": "",
        "country": "PH",
        "coord": {
            "lon": 122.936203,
            "lat": 10.2031
        }
    },
    {
        "id": 1729007,
        "name": "Bagontapay",
        "state": "",
        "country": "PH",
        "coord": {
            "lon": 124.90889,
            "lat": 6.85889
        }
    },
    {
        "id": 1729012,
        "name": "Bagong Tanza",
        "state": "",
        "country": "PH",
        "coord": {
            "lon": 121.612137,
            "lat": 16.98435
        }
    },
    {
        "id": 1729021,
        "name": "Bagong-Sikat",
        "state": "",
        "country": "PH",
        "coord": {
            "lon": 121.307297,
            "lat": 15.4801
        }
    },
    {
        "id": 1729022,
        "name": "Bagong Sikat",
        "state": "",
        "country": "PH",
        "coord": {
            "lon": 121.061707,
            "lat": 12.36745
        }
    },
    {
        "id": 1729047,
        "name": "Bagong Barrio",
        "state": "",
        "country": "PH",
        "coord": {
            "lon": 120.949997,
            "lat": 14.9
        }
    },
    {
        "id": 1729085,
        "name": "Bago City",
        "state": "",
        "country": "PH",
        "coord": {
            "lon": 122.833328,
            "lat": 10.53333
        }
    },
    {
        "id": 1729147,
        "name": "Bagay",
        "state": "",
        "country": "PH",
        "coord": {
            "lon": 124.035004,
            "lat": 11.1964
        }
    },
    {
        "id": 1729181,
        "name": "Baganga",
        "state": "",
        "country": "PH",
        "coord": {
            "lon": 126.559998,
            "lat": 7.57389
        }
    },
    {
        "id": 1729183,
        "name": "Bayanga",
        "state": "",
        "country": "PH",
        "coord": {
            "lon": 124.25222,
            "lat": 7.52139
        }
    },
    {
        "id": 1729191,
        "name": "Bagan",
        "state": "",
        "country": "PH",
        "coord": {
            "lon": 124.42028,
            "lat": 6.92556
        }
    },
    {
        "id": 1729195,
        "name": "Bagamanoc",
        "state": "",
        "country": "PH",
        "coord": {
            "lon": 124.287804,
            "lat": 13.941
        }
    },
    {
        "id": 1729213,
        "name": "Bagalangit",
        "state": "",
        "country": "PH",
        "coord": {
            "lon": 120.87706,
            "lat": 13.70977
        }
    },
    {
        "id": 1729223,
        "name": "Bagakay",
        "state": "",
        "country": "PH",
        "coord": {
            "lon": 123.804443,
            "lat": 8.13861
        }
    },
    {
        "id": 1729228,
        "name": "Bagahanlad",
        "state": "",
        "country": "PH",
        "coord": {
            "lon": 123.6688,
            "lat": 12.5797
        }
    },
    {
        "id": 1729271,
        "name": "Bagacay",
        "state": "",
        "country": "PH",
        "coord": {
            "lon": 123.3032,
            "lat": 13.777
        }
    },
    {
        "id": 1729278,
        "name": "Bagacay",
        "state": "",
        "country": "PH",
        "coord": {
            "lon": 124.141502,
            "lat": 12.9821
        }
    },
    {
        "id": 1729303,
        "name": "Bagacay",
        "state": "",
        "country": "PH",
        "coord": {
            "lon": 124.258568,
            "lat": 10.15209
        }
    },
    {
        "id": 1729304,
        "name": "Bagacay",
        "state": "",
        "country": "PH",
        "coord": {
            "lon": 123.917999,
            "lat": 9.8664
        }
    },
    {
        "id": 1729310,
        "name": "Bagac",
        "state": "",
        "country": "PH",
        "coord": {
            "lon": 120.392799,
            "lat": 14.5962
        }
    },
    {
        "id": 1729322,
        "name": "Bagabag",
        "state": "",
        "country": "PH",
        "coord": {
            "lon": 121.254204,
            "lat": 16.6068
        }
    },
    {
        "id": 1729324,
        "name": "Baggabag B",
        "state": "",
        "country": "PH",
        "coord": {
            "lon": 121.19014,
            "lat": 16.50588
        }
    },
    {
        "id": 1729351,
        "name": "Buadtasan",
        "state": "",
        "country": "PH",
        "coord": {
            "lon": 124.612663,
            "lat": 6.00496
        }
    },
    {
        "id": 1729357,
        "name": "Badoc",
        "state": "",
        "country": "PH",
        "coord": {
            "lon": 120.476402,
            "lat": 17.9265
        }
    },
    {
        "id": 1729362,
        "name": "Badlan",
        "state": "",
        "country": "PH",
        "coord": {
            "lon": 122.519997,
            "lat": 11.1414
        }
    },
    {
        "id": 1729386,
        "name": "Badiangan",
        "state": "",
        "country": "PH",
        "coord": {
            "lon": 122.500504,
            "lat": 11.00573
        }
    },
    {
        "id": 1729387,
        "name": "Badiangan",
        "state": "",
        "country": "PH",
        "coord": {
            "lon": 122.537697,
            "lat": 10.9879
        }
    },
    {
        "id": 1729410,
        "name": "Badian",
        "state": "",
        "country": "PH",
        "coord": {
            "lon": 123.307777,
            "lat": 13.03167
        }
    },
    {
        "id": 1729411,
        "name": "Badian",
        "state": "",
        "country": "PH",
        "coord": {
            "lon": 123.396393,
            "lat": 9.86472
        }
    },